QoS	station	latitude	revision	longitude	location
maintenance	Baki	9.89206	2024-10-22	43.38531	Africa/Mogadishu
good	Voznesensk	47.56494	11/20/2023, 00:00:00	31.33078	Europe/Kyiv
good	Msaken	35.72917	21 Apr 2017	10.58082	Africa/Tunis
acceptable	Pottstown	40.24537	13 Nov 2019	-75.64963	America/New_York
acceptable	Gilbert	33.35283	2023-09-04	-111.78903	America/Phoenix
good	Zeist	52.09	2016-08-29	5.23333	Europe/Amsterdam
acceptable	Manaoag	16.0438	29 Nov 2019	120.4861	Asia/Manila
excellent	Liberia	10.63504	2020-10-17	-85.43772	America/Costa_Rica
good	La Trinidad	16.455	26 Aug 2018	120.5875	Asia/Manila
good	Yunguyo	-16.25	11/23/2018, 00:00:00	-69.08333	America/Lima
good	Agrigento	37.31065	2023/01/15	13.57661	Europe/Rome
excellent	Smolyan	41.57439	04 Dec 2023	24.71204	Europe/Sofia
good	Izluchinsk	60.97944	2017/05/25	76.92421	Asia/Yekaterinburg
excellent	Fairview Heights	38.58894	02 Mar 2016	-89.99038	America/Chicago
excellent	Esmeraldas	-19.7625	25 Aug 2024	-44.31389	America/Sao_Paulo
good	Alfenas	-21.42917	2021-12-28	-45.94722	America/Sao_Paulo
acceptable	Utica	43.1009	2023/10/23	-75.23266	America/New_York
good	Perugia	43.1122	2017/02/15	12.38878	Europe/Rome
good	Nonsan	36.20389	2024/07/12	127.08472	Asia/Seoul
good	Troutdale	45.53929	11 Feb 2022	-122.38731	America/Los_Angeles
acceptable	Biu	10.61285	06/30/2025, 00:00:00	12.19458	Africa/Lagos
good	Azrou	33.43443	2019-08-22	-5.22126	Africa/Casablanca
good	Ariccia	41.72063	2023-02-12	12.6723	Europe/Rome
excellent	Charlottetown	46.23899	02/01/2023, 00:00:00	-63.13414	America/Halifax
acceptable	Gudermes	43.35071	07 Sep 2024	46.10925	Europe/Moscow
good	Iringa	-7.76667	2023-12-04	35.7	Africa/Dar_es_Salaam
good	Encinitas	33.03699	2021/08/25	-117.29198	America/Los_Angeles
good	Jingzhou	30.35028	10/03/2017, 00:00:00	112.19028	Asia/Shanghai
excellent	Reutlingen	48.49144	06/17/2019, 00:00:00	9.20427	Europe/Berlin
good	Idenao	4.2475	12/16/2017, 00:00:00	9.00472	Africa/Douala
excellent	Ragusa	36.92574	16 Apr 2022	14.72443	Europe/Rome
excellent	South Lawndale	41.84364	15 Jan 2025	-87.71255	America/Chicago
good	Kafanchan	9.58126	10/15/2021, 00:00:00	8.2926	Africa/Lagos
excellent	Timaru	-44.39672	2024/09/11	171.25364	Pacific/Auckland
good	Barbil	22.10194	2019-12-18	85.37752	Asia/Kolkata
excellent	Winsford	53.19146	29 Nov 2018	-2.52398	Europe/London
good	Zaysan	47.46657	24 Nov 2024	84.87144	Asia/Almaty
excellent	Tandil	-37.32167	08/31/2017, 00:00:00	-59.13316	America/Argentina/Buenos_Aires
good	Sangla Hill	31.71667	2017/03/11	73.38333	Asia/Karachi
excellent	Tsuen Wan	22.37066	12/25/2019, 00:00:00	114.10479	Asia/Hong_Kong
excellent	Greenfield	39.78504	01/07/2025, 00:00:00	-85.76942	America/Indiana/Indianapolis
acceptable	Gariadhar	21.53889	2015/12/14	71.57737	Asia/Kolkata
acceptable	American Canyon	38.17492	04 Jul 2017	-122.2608	America/Los_Angeles
excellent	Darreh Shahr	33.14447	12/30/2016, 00:00:00	47.3799	Asia/Tehran
good	Toledo	41.66394	01/29/2022, 00:00:00	-83.55521	America/New_York
good	Guapimirim	-22.53722	07/27/2017, 00:00:00	-42.98194	America/Sao_Paulo
good	Danilov	58.1908	10 May 2025	40.17171	Europe/Moscow
good	Memmingen	47.98372	2024/10/05	10.18527	Europe/Berlin
acceptable	Carnot	4.94273	12 May 2022	15.87735	Africa/Bangui
excellent	Brierley Hill	52.48173	2020/01/25	-2.12139	Europe/London
excellent	Boumerdas	36.76639	2023/05/20	3.47717	Africa/Algiers
excellent	Jambi City	-1.6	07/23/2016, 00:00:00	103.61667	Asia/Jakarta
excellent	Bretten	49.03685	23 Jul 2017	8.70745	Europe/Berlin
excellent	Maasin	10.13361	01/23/2024, 00:00:00	124.84472	Asia/Manila
good	Belper	53.0233	01/01/2021, 00:00:00	-1.48119	Europe/London
acceptable	Esmeraldas	-19.7625	03/13/2017, 00:00:00	-44.31389	America/Sao_Paulo
excellent	West Des Moines	41.57721	2021-07-12	-93.71133	America/Chicago
good	Litvínov	50.598427	20 Sep 2025	13.610242	Europe/Prague
excellent	Great Wyrley	52.66277	27 Oct 2016	-2.01111	Europe/London
acceptable	Brazzaville	-4.26613	01/16/2025, 00:00:00	15.28318	Africa/Brazzaville
good	Losheim	49.5099	11/18/2017, 00:00:00	6.74549	Europe/Berlin
excellent	Saharsa	25.87498	11/13/2021, 00:00:00	86.59611	Asia/Kolkata
good	Waverly	42.7392	2021-09-29	-84.62081	America/Detroit
excellent	Reus	41.15612	2020/09/11	1.10687	Europe/Madrid
excellent	Argungu	12.74482	04/02/2022, 00:00:00	4.52514	Africa/Lagos
excellent	Shuangcheng	45.35	13 Feb 2021	126.28333	Asia/Shanghai
acceptable	Calangute	15.5439	03/04/2022, 00:00:00	73.7553	Asia/Kolkata
good	Msaken	35.72917	12/15/2023, 00:00:00	10.58082	Africa/Tunis
good	Tavda	58.04254	2022/09/07	65.27258	Asia/Yekaterinburg
good	Paracho de Verduzco	19.64745	2020-11-09	-102.04897	America/Mexico_City
maintenance	Harstad	68.79833	10/06/2020, 00:00:00	16.54165	Europe/Oslo
good	Lal Bahadur Nagar	17.34769	2022-09-26	78.55757	Asia/Kolkata
good	Jiangyan	32.50611	08/08/2017, 00:00:00	120.14278	Asia/Shanghai
excellent	Trossingen	48.07667	13 Apr 2024	8.64409	Europe/Berlin
excellent	Chamba	32.55531	2023/07/09	76.12647	Asia/Kolkata
excellent	Rutherglen	55.82885	29 Aug 2020	-4.21376	Europe/London
excellent	Villabate	38.07789	06 Sep 2023	13.44275	Europe/Rome
acceptable	Barbil	22.10194	2024-06-29	85.37752	Asia/Kolkata
good	Nyangao	-10.33333	09/23/2016, 00:00:00	39.28333	Africa/Dar_es_Salaam
good	Greenfield	39.78504	2020/04/19	-85.76942	America/Indiana/Indianapolis
maintenance	Talipparamba	12.04161	2021/10/30	75.35927	Asia/Kolkata
excellent	Buynaksk	42.819	2021/03/09	47.1192	Europe/Moscow
excellent	Hutto	30.5427	2021-06-10	-97.54667	America/Chicago
good	Culemborg	51.955	2017/03/28	5.22778	Europe/Amsterdam
good	Foshan	23.02677	2020/08/12	113.13148	Asia/Shanghai
good	Morningside Heights	40.81	2015-12-22	-73.9625	America/New_York
excellent	Canton	42.30865	02/28/2019, 00:00:00	-83.48216	America/Detroit
excellent	Halstenbek	53.63333	2023/05/23	9.85	Europe/Berlin
excellent	Praha	50.073658	09/30/2024, 00:00:00	14.418540	Europe/Prague
maintenance	Beaumont	33.92946	08/28/2022, 00:00:00	-116.97725	America/Los_Angeles
good	Chamba	32.55531	01/11/2022, 00:00:00	76.12647	Asia/Kolkata
good	Fujioka	36.24624	2017/08/13	139.07204	Asia/Tokyo
excellent	Rutherglen	55.82885	2023-01-03	-4.21376	Europe/London
good	Srinagar	34.08565	03/23/2017, 00:00:00	74.80555	Asia/Kolkata
good	Biu	10.61285	2024/04/10	12.19458	Africa/Lagos
acceptable	Yingkou	40.66482	2024/05/21	122.22833	Asia/Shanghai
good	Most	50.50301	2025-01-11	13.63617	Europe/Prague
good	Yamada	39.46667	24 Nov 2023	141.95	Asia/Tokyo
acceptable	Vryheid	-27.76952	2017-11-05	30.79165	Africa/Johannesburg
excellent	Santa Maria	34.95303	15 Apr 2018	-120.43572	America/Los_Angeles
excellent	Dobrush	52.4089	28 Feb 2023	31.3237	Europe/Minsk
excellent	Dehiwala-Mount Lavinia	6.84019	02/04/2016, 00:00:00	79.87116	Asia/Colombo
good	Longgang	37.65181	31 Jul 2022	120.33063	Asia/Shanghai
good	Yamada	39.46667	25 Jun 2025	141.95	Asia/Tokyo
excellent	Brunswick	43.91452	09/12/2019, 00:00:00	-69.96533	America/New_York
excellent	Barras	-4.24444	21 Feb 2022	-42.29444	America/Fortaleza
acceptable	Nyahururu	0.03813	2023-06-12	36.36339	Africa/Nairobi
good	Kolomyagi	60.02427	2020-10-20	30.28491	Europe/Moscow
excellent	Hoogezand	53.16167	2019/11/19	6.76111	Europe/Amsterdam
good	Eisen	36.82167	28 Mar 2021	128.63083	Asia/Seoul
excellent	Guaraciaba do Norte	-4.16694	2022/08/07	-40.7475	America/Fortaleza
good	Balikpapan	-1.26753	30 Nov 2023	116.82887	Asia/Makassar
acceptable	Damnoen Saduak	13.51825	08/01/2019, 00:00:00	99.95469	Asia/Bangkok
good	Kahului	20.88953	09 Nov 2022	-156.47432	Pacific/Honolulu
excellent	Far Rockaway	40.60538	23 Jan 2018	-73.75513	America/New_York
good	Chanika	-5.41667	2021/06/24	38.01667	Africa/Dar_es_Salaam
maintenance	Maasin	10.13361	2021-08-15	124.84472	Asia/Manila
good	Recife	-8.05389	2021/09/10	-34.88111	America/Recife
good	Rwamagana	-1.9487	05 Nov 2017	30.4347	Africa/Kigali
excellent	Pekin	40.56754	2018-02-18	-89.64066	America/Chicago
good	Barneveld	52.14	06/21/2017, 00:00:00	5.58472	Europe/Amsterdam
acceptable	Port Huron	42.97086	05 May 2016	-82.42491	America/Detroit
good	Patti	31.28092	2025/06/26	74.85849	Asia/Kolkata
good	Saratoga Springs	40.34912	06/16/2025, 00:00:00	-111.90466	America/Denver
good	Neuburg an der Donau	48.73218	07/13/2018, 00:00:00	11.18709	Europe/Berlin
maintenance	Beveren	51.21187	2023-06-08	4.25633	Europe/Brussels
excellent	Korschenbroich	51.19139	22 Sep 2024	6.51352	Europe/Berlin
excellent	Telč	49.183239	25 Dec 2018	15.454273	Europe/Prague
good	Idenao	4.2475	2021-08-08	9.00472	Africa/Douala
acceptable	Nutley	40.82232	2016-11-24	-74.15987	America/New_York
excellent	Carnot	4.94273	2020/11/20	15.87735	Africa/Bangui
excellent	Tebingtinggi	3.3285	11/20/2019, 00:00:00	99.1625	Asia/Jakarta
acceptable	Hartley	51.38673	16 Feb 2022	0.30367	Europe/London
good	Lesosibirsk	58.23583	08/11/2024, 00:00:00	92.48278	Asia/Krasnoyarsk
good	Pilkhua	28.71271	11/08/2021, 00:00:00	77.656	Asia/Kolkata
excellent	Bisceglie	41.24264	2024/12/26	16.50104	Europe/Rome
good	Novara	45.44694	26 Feb 2020	8.62118	Europe/Rome
excellent	Arzamas	55.39485	05/29/2025, 00:00:00	43.83992	Europe/Moscow
excellent	Hoxtolgay	46.51872	06/22/2018, 00:00:00	86.00214	Asia/Urumqi
good	Jindřichův Hradec	49.144482	2023-07-14	15.006139	Europe/Prague
good	Manikchari	22.83957	04/01/2018, 00:00:00	91.84128	Asia/Dhaka
good	Pfullingen	48.46458	2025-07-06	9.22796	Europe/Berlin
acceptable	Beaumont	33.92946	2021-03-28	-116.97725	America/Los_Angeles
good	Ina	35.82756	23 May 2019	137.95378	Asia/Tokyo
good	Pekin	40.56754	08/12/2025, 00:00:00	-89.64066	America/Chicago
excellent	Espoo	60.2052	05 May 2021	24.6522	Europe/Helsinki
good	Lodwar	3.11988	12 Aug 2022	35.59642	Africa/Nairobi
good	Nikolayevsk-on-Amure	53.14657	08/20/2018, 00:00:00	140.72287	Asia/Vladivostok
excellent	Oulmes	33.42585	2019/03/03	-6.00137	Africa/Casablanca
acceptable	Woodbridge	40.5576	2023/12/18	-74.28459	America/New_York
acceptable	Baki	9.89206	2016/03/21	43.38531	Africa/Mogadishu
excellent	Dawei	14.0823	2020-10-13	98.19151	Asia/Yangon
good	Larkana	27.55898	14 Nov 2021	68.21204	Asia/Karachi
excellent	Motomachi	43.82634	2022/02/27	144.09638	Asia/Tokyo
good	Roi Et	16.0567	2025-02-03	103.65309	Asia/Bangkok
excellent	Boli	45.75279	12 May 2025	130.57211	Asia/Shanghai
excellent	Acayucan	17.94979	16 Oct 2024	-94.91386	America/Mexico_City
good	Bhuban	20.88197	06/02/2016, 00:00:00	85.83334	Asia/Kolkata
good	Zaysan	47.46657	02/08/2024, 00:00:00	84.87144	Asia/Almaty
good	Gorgonzola	45.53069	2021-04-29	9.40531	Europe/Rome
good	Astara	38.45598	06/30/2023, 00:00:00	48.87498	Asia/Baku
good	Jhol	25.95533	02/22/2016, 00:00:00	68.88871	Asia/Karachi
good	Temse	51.12794	2020/07/11	4.21372	Europe/Brussels
acceptable	Onex	46.18396	26 May 2020	6.10237	Europe/Zurich
good	Astara	38.45598	21 Feb 2021	48.87498	Asia/Baku
excellent	Ilopango	13.70167	01/14/2024, 00:00:00	-89.10944	America/El_Salvador
excellent	Espoo	60.2052	2021/11/01	24.6522	Europe/Helsinki
excellent	Lower Earley	51.42708	07/02/2016, 00:00:00	-0.91979	Europe/London
good	Barmbek-Nord	53.6052	2020/10/26	10.03988	Europe/Berlin
good	Tarkwa	5.30383	2018/09/11	-1.98956	Africa/Accra
maintenance	Boyeros	23.0072	2016/08/15	-82.4017	America/Havana
acceptable	Amreli	21.59983	2016/11/20	71.21169	Asia/Kolkata
good	Elbeuf	49.28669	2016-12-22	1.00288	Europe/Paris
good	Norco	33.93113	2021/09/28	-117.54866	America/Los_Angeles
good	Saint-Genis-Laval	45.69558	06 Feb 2022	4.7934	Europe/Paris
good	Sukabumi	-6.91806	07/04/2025, 00:00:00	106.92667	Asia/Jakarta
good	Lesozavodsk	45.47885	2022/12/05	133.42825	Asia/Vladivostok
good	Tupelo	34.25807	05 Aug 2018	-88.70464	America/Chicago
good	Taunton	41.9001	02/23/2016, 00:00:00	-71.08977	America/New_York
acceptable	Jagna	9.6531	2019/09/27	124.3697	Asia/Manila
excellent	East Jerusalem	31.78336	05/29/2022, 00:00:00	35.23388	Asia/Hebron
excellent	Bibiani	6.46346	10/22/2024, 00:00:00	-2.31938	Africa/Accra
excellent	Thenia	36.72544	2018/01/02	3.55665	Africa/Algiers
excellent	Lal Bahadur Nagar	17.34769	2020/07/03	78.55757	Asia/Kolkata
maintenance	Selby	53.78333	2024-07-04	-1.06667	Europe/London
excellent	Winsford	53.19146	24 Jan 2022	-2.52398	Europe/London
acceptable	Malden	42.4251	11/19/2019, 00:00:00	-71.06616	America/New_York
excellent	Altamira	-3.20333	2023/05/07	-52.20639	America/Santarem
acceptable	Scottsdale	33.50921	2016-09-11	-111.89903	America/Phoenix
excellent	Recife	-8.05389	21 Jan 2020	-34.88111	America/Recife
acceptable	Sasayama	35.06667	03 May 2016	135.21667	Asia/Tokyo
excellent	Marburg an der Lahn	50.80904	2022-12-22	8.77069	Europe/Berlin
excellent	Kanganpur	30.76468	10 Jul 2016	74.12286	Asia/Karachi
acceptable	Silvan	38.13708	2015-11-28	41.00817	Europe/Istanbul
excellent	Teghra	25.49043	02 Aug 2021	85.94001	Asia/Kolkata
good	Heyuan	23.73333	11 Nov 2024	114.68333	Asia/Shanghai
excellent	Hungund	16.06213	09 Nov 2024	76.0586	Asia/Kolkata
good	Milledgeville	33.08014	2024-12-09	-83.2321	America/New_York
maintenance	Boston	42.35843	07 Nov 2024	-71.05977	America/New_York
good	Diwek	-7.57897	07/17/2018, 00:00:00	112.23109	Asia/Jakarta
good	New Canaan	41.14676	18 Dec 2021	-73.49484	America/New_York
acceptable	Halstenbek	53.63333	10 Aug 2019	9.85	Europe/Berlin
maintenance	Kasangulu	-4.5833	04 Jul 2020	15.16554	Africa/Kinshasa
good	Indio	33.7207	22 Dec 2024	-116.21677	America/Los_Angeles
good	Tupelo	34.25807	2019-02-04	-88.70464	America/Chicago
acceptable	Yonkers	40.93121	11/17/2022, 00:00:00	-73.89875	America/New_York
excellent	Copperas Cove	31.12406	2018/10/07	-97.90308	America/Chicago
acceptable	Laguna Niguel	33.52253	2025/09/06	-117.70755	America/Los_Angeles
acceptable	Bergama	39.12074	2021-03-20	27.18052	Europe/Istanbul
acceptable	Sinhyeon	34.8825	30 Sep 2017	128.62667	Asia/Seoul
good	Litvínov	50.598427	2023-11-11	13.610242	Europe/Prague
excellent	Arbroath	56.56317	2019/07/20	-2.58736	Europe/London
excellent	Sremska Mitrovica	44.97639	03/29/2016, 00:00:00	19.61222	Europe/Belgrade
good	Boli	45.75279	05/10/2016, 00:00:00	130.57211	Asia/Shanghai
excellent	La Ligua	-32.45242	05/18/2016, 00:00:00	-71.23106	America/Santiago
maintenance	Ngemplak	-7.54972	2025-03-13	110.71639	Asia/Jakarta
good	Litvínov	50.598427	23 Sep 2021	13.610242	Europe/Prague
good	Hlohovec	48.43174	2019-09-03	17.8031	Europe/Bratislava
excellent	Coralville	41.6764	11/17/2023, 00:00:00	-91.58045	America/Chicago
excellent	Palmeira	-25.42944	02/27/2022, 00:00:00	-50.00639	America/Sao_Paulo
excellent	Palafrugell	41.91738	12 Feb 2017	3.1631	Europe/Madrid
good	Licheng	23.29549	08 Dec 2022	113.82465	Asia/Shanghai
good	Rangia	26.44931	02/05/2025, 00:00:00	91.61356	Asia/Kolkata
excellent	Hermsdorf	52.61131	2022/10/18	13.31783	Europe/Berlin
good	Ngemplak	-7.54972	2018/02/16	110.71639	Asia/Jakarta
acceptable	Lexington	33.98154	2023-09-12	-81.23621	America/New_York
good	Bridgeport	41.16704	10 Jun 2019	-73.20483	America/New_York
good	Lagos	6.45407	2020/08/05	3.39467	Africa/Lagos
acceptable	Kamakura	35.30889	2019-03-28	139.55028	Asia/Tokyo
excellent	Muritiba	-12.91667	2016/10/14	-39.25	America/Bahia
good	Arzamas	55.39485	2021/05/31	43.83992	Europe/Moscow
good	Cabo	-8.28333	2019/11/23	-35.03333	America/Recife
good	Estelle	29.84576	05/28/2017, 00:00:00	-90.10674	America/Chicago
excellent	Hendala	6.9909	2025/03/06	79.883	Asia/Colombo
maintenance	Inawashiro	37.56667	06/05/2019, 00:00:00	140.11667	Asia/Tokyo
good	Paoy Paet	13.65805	2017-08-28	102.56365	Asia/Phnom_Penh
acceptable	Lakewood	41.48199	2016/01/21	-81.79819	America/New_York
good	Zeist	52.09	05/22/2020, 00:00:00	5.23333	Europe/Amsterdam
excellent	Jocotepec	20.28527	2018/09/06	-103.42897	America/Mexico_City
excellent	New Yekepa	7.57944	04/04/2018, 00:00:00	-8.53778	Africa/Monrovia
good	Le Chesnay	48.8222	12/31/2020, 00:00:00	2.12213	Europe/Paris
excellent	Namerikawa	36.75965	25 Jul 2022	137.36215	Asia/Tokyo
acceptable	Carnegie	-37.88333	19 Aug 2019	145.06667	Australia/Melbourne
acceptable	High Wycombe	51.62907	03/24/2023, 00:00:00	-0.74934	Europe/London
excellent	Mbalmayo	3.51667	12 Aug 2018	11.5	Africa/Douala
good	Media Luna	20.14298	2018-09-26	-77.43532	America/Havana
maintenance	Elbeuf	49.28669	2016-03-29	1.00288	Europe/Paris
excellent	La Ligua	-32.45242	25 Sep 2019	-71.23106	America/Santiago
good	Soroca	48.15659	01/23/2017, 00:00:00	28.28489	Europe/Chisinau
acceptable	Lesozavodsk	45.47885	2017/05/22	133.42825	Asia/Vladivostok
good	Thap Than	15.46063	13 Mar 2023	99.89166	Asia/Bangkok
excellent	Kulai	1.6561	2017-10-28	103.6032	Asia/Kuala_Lumpur
good	Lompoc	34.63915	2024/12/12	-120.45794	America/Los_Angeles
excellent	Bijeljina	44.75874	30 Aug 2017	19.21437	Europe/Sarajevo
good	Masbate	12.37169	2016/04/18	123.62494	Asia/Manila
excellent	Mexborough	53.49389	11/29/2018, 00:00:00	-1.29243	Europe/London
good	Altamira	-3.20333	02/09/2017, 00:00:00	-52.20639	America/Santarem
excellent	Nova Xavantina	-14.66463	2016-02-24	-52.35558	America/Cuiaba
good	North Lauderdale	26.2173	2021-06-20	-80.22588	America/New_York
excellent	Udumalaippettai	10.58806	04/23/2020, 00:00:00	77.24779	Asia/Kolkata
good	Bonoua	5.27247	2022/07/25	-3.59625	Africa/Abidjan
good	Palestine	31.76212	03/06/2021, 00:00:00	-95.63079	America/Chicago
excellent	Ustka	54.58048	08/28/2024, 00:00:00	16.86194	Europe/Warsaw
acceptable	Zaozhuang	34.86472	10 Apr 2025	117.55417	Asia/Shanghai
good	Dipolog	8.56697	2025/01/06	123.33471	Asia/Manila
good	Masbate	12.37169	14 May 2024	123.62494	Asia/Manila
good	Buenaventura	3.8801	12 Feb 2016	-77.03116	America/Bogota
good	Shahre Jadide Andisheh	35.6803	2022/11/17	51.0193	Asia/Tehran
acceptable	Davangere	14.46693	09/08/2019, 00:00:00	75.92694	Asia/Kolkata
excellent	Ar Ruseris	11.8659	2021/01/07	34.3869	Africa/Khartoum
good	Alwaye	10.10649	2020/06/05	76.35484	Asia/Kolkata
excellent	Mvomero	-6.25	09 Apr 2017	38.66667	Africa/Dar_es_Salaam
excellent	Lakewood	41.48199	04/22/2020, 00:00:00	-81.79819	America/New_York
good	Mokopane	-24.19436	07/09/2021, 00:00:00	29.00974	Africa/Johannesburg
excellent	Karben	50.23019	10 Aug 2023	8.77155	Europe/Berlin
good	Olomouc	49.593777	2017-09-24	17.250879	Europe/Prague
acceptable	Greenfield	39.78504	19 May 2017	-85.76942	America/Indiana/Indianapolis
acceptable	Tudela	42.06166	12/26/2021, 00:00:00	-1.60452	Europe/Madrid
maintenance	Saharsa	25.87498	08/13/2023, 00:00:00	86.59611	Asia/Kolkata
acceptable	Maspalomas	27.76056	2023-08-12	-15.58602	Atlantic/Canary
good	Gaya	11.86064	07 Nov 2017	9.0027	Africa/Lagos
excellent	Antipolo	14.62578	2024-02-17	121.12251	Asia/Manila
excellent	Vught	51.65333	22 Nov 2020	5.2875	Europe/Amsterdam
good	Chacabuco	-34.64167	2022-06-28	-60.47389	America/Argentina/Buenos_Aires
excellent	Siegburg	50.80019	2019/06/09	7.20769	Europe/Berlin
good	Bourbonnais	41.15376	2020-11-20	-87.88754	America/Chicago
good	Buynaksk	42.819	2023-02-15	47.1192	Europe/Moscow
good	Pedro II	-4.42472	05/27/2016, 00:00:00	-41.45861	America/Fortaleza
good	Ina	35.82756	2023/06/14	137.95378	Asia/Tokyo
acceptable	Niort	46.32313	03/31/2018, 00:00:00	-0.45877	Europe/Paris
good	Chiavari	44.31771	03 Sep 2016	9.32241	Europe/Rome
maintenance	Stupino	54.90083	2018-01-04	38.07083	Europe/Moscow
excellent	Martinsburg	39.45621	02/17/2021, 00:00:00	-77.96389	America/New_York
good	Alatyr‚Äô	54.8421	2017-12-22	46.5813	Europe/Moscow
excellent	Aracaju	-10.91111	2025/01/02	-37.07167	America/Maceio
excellent	Andijon	40.78206	11/12/2017, 00:00:00	72.34424	Asia/Tashkent
good	Itacoatiara	-3.14306	2020/08/30	-58.44417	America/Manaus
excellent	Bijeljina	44.75874	2021/12/09	19.21437	Europe/Sarajevo
maintenance	Canavieiras	-15.675	12 Jul 2018	-38.94722	America/Bahia
good	Isfahan	32.65246	2017/05/24	51.67462	Asia/Tehran
excellent	Tonga	4.96667	2016/04/19	10.7	Africa/Douala
good	Yao	34.61667	04/22/2018, 00:00:00	135.6	Asia/Tokyo
excellent	Sinhyeon	34.8825	2024-07-20	128.62667	Asia/Seoul
good	Guanajuato	21.01858	07/06/2021, 00:00:00	-101.2591	America/Mexico_City
acceptable	Franceville	-1.63333	05 Nov 2021	13.58357	Africa/Libreville
excellent	Deoli	25.75728	2024-07-04	75.37991	Asia/Kolkata
excellent	Canavieiras	-15.675	2019-09-01	-38.94722	America/Bahia
good	Marau	-28.44917	08 Oct 2016	-52.2	America/Sao_Paulo
acceptable	Palm Valley	30.17746	2019/04/09	-81.38758	America/New_York
acceptable	Hungund	16.06213	2019-05-06	76.0586	Asia/Kolkata
good	Teghra	25.49043	07/12/2016, 00:00:00	85.94001	Asia/Kolkata
good	Gero	35.8	06/14/2024, 00:00:00	137.23333	Asia/Tokyo
excellent	Barbil	22.10194	14 Jun 2020	85.37752	Asia/Kolkata
good	Praha	50.073658	09/25/2021, 00:00:00	14.418540	Europe/Prague
good	Baza	37.49073	22 Feb 2023	-2.77259	Europe/Madrid
excellent	Aleshtar	33.86419	2019-09-14	48.26258	Asia/Tehran
excellent	Magong	23.5654	06/06/2021, 00:00:00	119.58627	Asia/Taipei
excellent	Bon Air	37.52487	2021-03-26	-77.55777	America/New_York
excellent	Herblay	48.98994	2023-11-03	2.1699	Europe/Paris
excellent	Hasilpur	29.69221	12/01/2017, 00:00:00	72.54566	Asia/Karachi
good	Patti	31.28092	07/14/2023, 00:00:00	74.85849	Asia/Kolkata
excellent	Hlohovec	48.43174	12/23/2015, 00:00:00	17.8031	Europe/Bratislava
acceptable	Parola	20.88098	09/14/2025, 00:00:00	75.11937	Asia/Kolkata
excellent	Kamakura	35.30889	20 Jan 2020	139.55028	Asia/Tokyo
acceptable	Sarandi	-23.44361	10 Nov 2018	-51.87389	America/Sao_Paulo
maintenance	Chilibre	9.15093	08/10/2019, 00:00:00	-79.62098	America/Panama
acceptable	Barras	-4.24444	2018-09-17	-42.29444	America/Fortaleza
good	Media Luna	20.14298	2024-02-15	-77.43532	America/Havana
acceptable	Thetford	52.41667	25 Sep 2019	0.75	Europe/London
excellent	Pekin	40.56754	2017/10/01	-89.64066	America/Chicago
good	Caravaca	38.10558	13 Nov 2020	-1.86343	Europe/Madrid
acceptable	Jambi City	-1.6	11/10/2018, 00:00:00	103.61667	Asia/Jakarta
excellent	Murray	36.61033	2016-03-31	-88.31476	America/Chicago
good	Keene	42.93369	2019-07-12	-72.27814	America/New_York
excellent	Bhuban	20.88197	09/03/2022, 00:00:00	85.83334	Asia/Kolkata
good	Maspalomas	27.76056	2024-11-05	-15.58602	Atlantic/Canary
good	Magomeni	-6.8	11/18/2015, 00:00:00	39.25	Africa/Dar_es_Salaam
acceptable	Chapletown	53.46506	2025-05-12	-1.47217	Europe/London
good	Bijeljina	44.75874	2018/05/05	19.21437	Europe/Sarajevo
good	Karatsu	33.4425	2020-04-14	129.96972	Asia/Tokyo
acceptable	Shalqar	47.83333	2020-04-01	59.6	Asia/Aqtobe
excellent	Sasayama	35.06667	04/09/2024, 00:00:00	135.21667	Asia/Tokyo
good	Elamanchili	17.54907	15 Aug 2020	82.85749	Asia/Kolkata
good	les Escaldes	42.50729	02/26/2021, 00:00:00	1.53414	Europe/Andorra
excellent	Tadmur	34.5624	04 Oct 2023	38.28402	Asia/Damascus
maintenance	Schwalmtal	51.21667	2017-10-15	6.26667	Europe/Berlin
good	Bang Ban	14.37395	2019-03-02	100.48528	Asia/Bangkok
excellent	Serinhisar	37.58105	22 Jul 2023	29.26639	Europe/Istanbul
good	Roslavl‚Äô	53.95278	06 May 2021	32.86389	Europe/Moscow
excellent	Gifhorn	52.47774	2017/04/04	10.5511	Europe/Berlin
good	Heroica Matamoros	25.87972	2023/07/28	-97.50417	America/Matamoros
good	Astara	38.45598	2022/01/25	48.87498	Asia/Baku
excellent	Caldas Novas	-17.74431	06 Apr 2021	-48.62789	America/Sao_Paulo
excellent	Les Olives	43.32393	19 Dec 2019	5.4584	Europe/Paris
good	Lesosibirsk	58.23583	2023/12/30	92.48278	Asia/Krasnoyarsk
good	Supaul	26.11527	27 Feb 2017	86.59509	Asia/Kolkata
good	Calauan	14.14989	2023/12/12	121.3152	Asia/Manila
excellent	Albufeira	37.08819	18 Dec 2019	-8.2503	Europe/Lisbon
good	Hlohovec	48.43174	09 Jan 2025	17.8031	Europe/Bratislava
good	Albstadt	48.21644	2018/10/14	9.02596	Europe/Berlin
excellent	Onex	46.18396	2020/12/03	6.10237	Europe/Zurich
excellent	Deoli	25.75728	2022/01/08	75.37991	Asia/Kolkata
good	Winsford	53.19146	2020/11/19	-2.52398	Europe/London
maintenance	Bourbonnais	41.15376	2024-06-21	-87.88754	America/Chicago
acceptable	Nyahururu	0.03813	05/19/2021, 00:00:00	36.36339	Africa/Nairobi
excellent	San Gabriel	34.09611	2024-07-19	-118.10583	America/Los_Angeles
excellent	Caravaca	38.10558	04/14/2018, 00:00:00	-1.86343	Europe/Madrid
excellent	Phanat Nikhom	13.44581	05/08/2022, 00:00:00	101.18445	Asia/Bangkok
acceptable	Kherson	46.65581	17 Mar 2016	32.6178	Europe/Kyiv
good	Donggongon	5.90702	07/11/2017, 00:00:00	116.10146	Asia/Kuching
good	Schleswig	54.52156	06 Mar 2018	9.5586	Europe/Berlin
excellent	Lesozavodsk	45.47885	2023/10/21	133.42825	Asia/Vladivostok
excellent	Jagna	9.6531	01 Feb 2017	124.3697	Asia/Manila
excellent	Madrid	4.73245	2024/02/19	-74.26419	America/Bogota
excellent	Ponta Delgada	37.74615	2020-02-07	-25.66689	Atlantic/Azores
good	Udumalaippettai	10.58806	2025-08-18	77.24779	Asia/Kolkata
good	Barinas	8.62261	01/29/2023, 00:00:00	-70.20749	America/Caracas
good	Wheelers Hill	-37.9	2020/01/03	145.18333	Australia/Melbourne
excellent	Bang Ban	14.37395	08/01/2022, 00:00:00	100.48528	Asia/Bangkok
good	Kismayo	-0.35817	03/14/2016, 00:00:00	42.54536	Africa/Mogadishu
acceptable	Canavieiras	-15.675	07/26/2017, 00:00:00	-38.94722	America/Bahia
good	Brentwood Estates	36.02506	07/09/2023, 00:00:00	-86.77917	America/Chicago
good	Port-Vila	-17.73648	2016-04-25	168.31366	Pacific/Efate
excellent	Durazno	-33.38056	13 Apr 2016	-56.52361	America/Montevideo
excellent	Iturama	-19.72806	09 Oct 2020	-50.19556	America/Sao_Paulo
good	Hechingen	48.35149	12/05/2022, 00:00:00	8.96317	Europe/Berlin
acceptable	Strood	51.39323	2021/03/24	0.47713	Europe/London
maintenance	Skalica	48.8449	10/27/2022, 00:00:00	17.22635	Europe/Bratislava
acceptable	Masbate	12.37169	2022/01/29	123.62494	Asia/Manila
excellent	Palmeira	-25.42944	2024/05/10	-50.00639	America/Sao_Paulo
excellent	Most	50.50301	2018-02-26	13.63617	Europe/Prague
excellent	Huangshi	30.24706	2017-12-11	115.04814	Asia/Shanghai
acceptable	Exeter	50.7236	2023/10/16	-3.52751	Europe/London
excellent	Woodbridge	40.5576	2020-11-27	-74.28459	America/New_York
excellent	Searcy	35.25064	2017-04-05	-91.73625	America/Chicago
excellent	Narwar	25.6439	11/16/2018, 00:00:00	77.9129	Asia/Kolkata
good	Tianfu	37.19723	05/14/2025, 00:00:00	122.05228	Asia/Shanghai
good	Tchaourou	8.88649	2025/04/24	2.59753	Africa/Porto-Novo
good	Alatyr‚Äô	54.8421	18 Sep 2020	46.5813	Europe/Moscow
acceptable	Kenda	23.1959	2023-09-26	86.51499	Asia/Kolkata
acceptable	Bryn Mawr-Skyway	47.4943	2019-07-30	-122.24092	America/Los_Angeles
acceptable	Palafrugell	41.91738	12/27/2019, 00:00:00	3.1631	Europe/Madrid
acceptable	Salvatierra	20.21322	2022/01/04	-100.88023	America/Mexico_City
good	Iringa	-7.76667	2019-10-24	35.7	Africa/Dar_es_Salaam
excellent	Custoias	41.1053	04/20/2025, 00:00:00	-7.32097	Europe/Lisbon
acceptable	Le Chesnay	48.8222	05 Apr 2020	2.12213	Europe/Paris
good	Sishui	35.64889	2025/05/02	117.27583	Asia/Shanghai
excellent	Osmanabad	18.18158	2023-10-05	76.03889	Asia/Kolkata
excellent	Landshut	48.52961	2017-05-03	12.16179	Europe/Berlin
excellent	Oschatz	51.30001	27 Oct 2022	13.10984	Europe/Berlin
good	Qadirpur Ran	30.29184	12/20/2018, 00:00:00	71.67164	Asia/Karachi
good	Danilov	58.1908	2019/02/13	40.17171	Europe/Moscow
good	Walton-on-the-Naze	51.84819	05/27/2024, 00:00:00	1.26738	Europe/London
excellent	Tyler	32.35126	07 Sep 2023	-95.30106	America/Chicago
acceptable	Memmingen	47.98372	2022-06-20	10.18527	Europe/Berlin
excellent	Negotin	44.22639	2018/02/10	22.53083	Europe/Belgrade
good	Bobigny	48.90982	04/25/2023, 00:00:00	2.45012	Europe/Paris
good	Houthalen	51.03427	2016/02/05	5.37429	Europe/Brussels
acceptable	Novara	45.44694	2019/01/21	8.62118	Europe/Rome
acceptable	Ostrava	49.820923	2021-02-19	18.262524	Europe/Prague
good	Lompoc	34.63915	2016/06/18	-120.45794	America/Los_Angeles
excellent	Hofheim am Taunus	50.09019	12/18/2023, 00:00:00	8.4493	Europe/Berlin
excellent	Nkpor	6.15038	2024-02-18	6.83042	Africa/Lagos
good	Otradnyy	53.37596	20 Jan 2020	51.3452	Europe/Samara
good	Aklera	24.41288	2016-05-18	76.56719	Asia/Kolkata
excellent	Talavera de la Reina	39.96348	2023/08/07	-4.83076	Europe/Madrid
good	Soure	-0.71667	29 Jun 2023	-48.52333	America/Belem
acceptable	Volokolamsk	56.03361	03/11/2023, 00:00:00	35.96944	Europe/Moscow
maintenance	Saratoga Springs	40.34912	13 May 2017	-111.90466	America/Denver
good	Sasayama	35.06667	19 Jul 2021	135.21667	Asia/Tokyo
good	Sankt Peter	47.05	2023-05-26	15.46667	Europe/Vienna
acceptable	Redding	40.58654	2018-02-14	-122.39168	America/Los_Angeles
maintenance	Montana	43.4125	2018-12-23	23.225	Europe/Sofia
good	Jinotepe	11.84962	04 Aug 2024	-86.19903	America/Managua
maintenance	Ganei Tikva	32.05971	2019-10-18	34.8732	Asia/Jerusalem
good	Kahului	20.88953	2016/07/30	-156.47432	Pacific/Honolulu
good	Sceaux	48.77644	2017-04-07	2.29026	Europe/Paris
excellent	Herblay	48.98994	20 Apr 2019	2.1699	Europe/Paris
acceptable	Novopavlovsk	43.96222	06/13/2022, 00:00:00	43.63417	Europe/Moscow
good	Surbiton	51.39148	11/29/2024, 00:00:00	-0.29825	Europe/London
excellent	Licheng	23.29549	11/12/2016, 00:00:00	113.82465	Asia/Shanghai
excellent	Charlottenburg-Nord	52.53048	06/24/2017, 00:00:00	13.29371	Europe/Berlin
good	Ilesa	7.62789	2018/06/29	4.74161	Africa/Lagos
excellent	Kent	47.38093	11/03/2021, 00:00:00	-122.23484	America/Los_Angeles
good	Shalqar	47.83333	2018-09-08	59.6	Asia/Aqtobe
good	Okegawa	36	2020-11-21	139.55722	Asia/Tokyo
good	Reus	41.15612	11/12/2016, 00:00:00	1.10687	Europe/Madrid
excellent	Talence	44.80477	2016/04/14	-0.59543	Europe/Paris
good	Verl	51.88333	2016-02-06	8.51667	Europe/Berlin
acceptable	Hengshui	37.73222	2022/12/16	115.70111	Asia/Shanghai
good	Stupino	54.90083	2023-06-21	38.07083	Europe/Moscow
excellent	Jumilla	38.47917	2021/09/05	-1.325	Europe/Madrid
excellent	Brzeg	50.86079	09/13/2024, 00:00:00	17.4674	Europe/Warsaw
excellent	Puducherry	11.93381	10 Jul 2024	79.82979	Asia/Kolkata
good	Bogovinje	41.92361	02/06/2020, 00:00:00	20.91361	Europe/Skopje
good	Maspalomas	27.76056	2024-03-18	-15.58602	Atlantic/Canary
good	Radevormwald	51.20219	2023-11-29	7.36027	Europe/Berlin
excellent	Damnoen Saduak	13.51825	2019-12-22	99.95469	Asia/Bangkok
good	Karlovy Vary	50.23271	01/22/2025, 00:00:00	12.87117	Europe/Prague
excellent	Ganei Tikva	32.05971	2017/01/18	34.8732	Asia/Jerusalem
good	Rahat	31.39547	09/07/2022, 00:00:00	34.75699	Asia/Jerusalem
excellent	'Ali Sabieh	11.15583	2016-03-26	42.7125	Africa/Djibouti
good	Gates-North Gates	43.16547	2017-01-25	-77.70066	America/New_York
excellent	Abilene	32.44874	2018/04/24	-99.73314	America/Chicago
good	Kahului	20.88953	24 Jan 2016	-156.47432	Pacific/Honolulu
good	Yao	34.61667	07/12/2018, 00:00:00	135.6	Asia/Tokyo
excellent	San Gabriel	34.09611	2018-03-27	-118.10583	America/Los_Angeles
good	Liberia	10.63504	2020/07/06	-85.43772	America/Costa_Rica
good	Sambalpur	21.46527	2024-11-08	83.97573	Asia/Kolkata
acceptable	Rosemount	44.73941	06/12/2024, 00:00:00	-93.12577	America/Chicago
good	Privolzhskiy	51.40944	2020/10/31	46.04833	Europe/Saratov
excellent	Mitry-Mory	48.98333	13 Jan 2021	2.61667	Europe/Paris
excellent	Hueytown	33.45122	01/25/2017, 00:00:00	-86.99666	America/Chicago
acceptable	Danjiangkou	32.54278	2021-09-01	111.50861	Asia/Shanghai
good	Gauting	48.06919	2022/12/28	11.37703	Europe/Berlin
good	Poulton-le-Fylde	53.83333	2018/10/21	-2.98333	Europe/London
acceptable	Chapletown	53.46506	27 Sep 2020	-1.47217	Europe/London
excellent	Westchester	41.85059	04 Apr 2024	-87.882	America/Chicago
good	Ada	34.77453	2016-10-18	-96.67834	America/Chicago
good	Jindřichův Hradec	49.144482	21 May 2018	15.006139	Europe/Prague
good	Tianfu	37.19723	08/12/2017, 00:00:00	122.05228	Asia/Shanghai
good	Catende	-8.66667	03/18/2018, 00:00:00	-35.71667	America/Recife
excellent	Srinagar	34.08565	2021/08/31	74.80555	Asia/Kolkata
good	Ikalamavony	-21.15	08/21/2018, 00:00:00	46.58333	Indian/Antananarivo
acceptable	Novara	45.44694	2023-08-05	8.62118	Europe/Rome
good	Lower West Side	41.8542	2025-02-15	-87.66561	America/Chicago
good	Lakota	5.84752	2015/10/04	-5.682	Africa/Abidjan
good	Otradnyy	53.37596	2019/10/05	51.3452	Europe/Samara
maintenance	Caravaca	38.10558	2023/03/10	-1.86343	Europe/Madrid
good	Telč	49.183239	2019-12-27	15.454273	Europe/Prague
good	Carnegie	-37.88333	02/24/2017, 00:00:00	145.06667	Australia/Melbourne
good	Kensington	40.64621	2018/01/17	-73.97069	America/New_York
excellent	Laguna Niguel	33.52253	2018-10-03	-117.70755	America/Los_Angeles
excellent	Malden	42.4251	2015/10/15	-71.06616	America/New_York
maintenance	'Ali Sabieh	11.15583	07/25/2018, 00:00:00	42.7125	Africa/Djibouti
acceptable	Heroica Matamoros	25.87972	06 Dec 2020	-97.50417	America/Matamoros
excellent	Guyong	14.8361	2023/02/11	120.97844	Asia/Manila
acceptable	'Ali Sabieh	11.15583	01/26/2023, 00:00:00	42.7125	Africa/Djibouti
good	Rangia	26.44931	08/24/2025, 00:00:00	91.61356	Asia/Kolkata
good	Sharypovo	55.54028	2017/10/29	89.20083	Asia/Krasnoyarsk
good	Somma Vesuviana	40.87329	31 Jan 2020	14.43865	Europe/Rome
good	Minokamo	35.48199	2017/04/10	137.02166	Asia/Tokyo
excellent	Arbroath	56.56317	07/14/2024, 00:00:00	-2.58736	Europe/London
maintenance	Jais	26.2649	21 Jun 2019	81.54855	Asia/Kolkata
excellent	Dehiwala-Mount Lavinia	6.84019	01/12/2017, 00:00:00	79.87116	Asia/Colombo
good	Luena	-11.78333	05/19/2016, 00:00:00	19.91667	Africa/Luanda
maintenance	Zaozhuang	34.86472	12/29/2017, 00:00:00	117.55417	Asia/Shanghai
acceptable	Siegburg	50.80019	2022-01-03	7.20769	Europe/Berlin
good	Tuxtla	16.75973	26 May 2017	-93.11308	America/Mexico_City
good	Guyong	14.8361	2019/08/01	120.97844	Asia/Manila
good	Brentwood Estates	36.02506	03 Feb 2022	-86.77917	America/Chicago
excellent	Alipur	29.38242	03/29/2022, 00:00:00	70.91106	Asia/Karachi
good	Dawei	14.0823	2021-05-01	98.19151	Asia/Yangon
good	Corralillo	22.98212	2024-07-05	-80.58556	America/Havana
acceptable	Carnegie	-37.88333	2019-02-03	145.06667	Australia/Melbourne
excellent	Ilesa	7.62789	07/23/2017, 00:00:00	4.74161	Africa/Lagos
excellent	Bergama	39.12074	2025-09-11	27.18052	Europe/Istanbul
excellent	Masbate	12.37169	2020/10/01	123.62494	Asia/Manila
excellent	High Wycombe	51.62907	2022-03-06	-0.74934	Europe/London
excellent	Strzelce Opolskie	50.5107	20 Jul 2016	18.30056	Europe/Warsaw
good	Oktyabr‚Äôskiy	54.48147	26 Dec 2019	53.47103	Asia/Yekaterinburg
good	Muskogee	35.74788	08/18/2019, 00:00:00	-95.36969	America/Chicago
acceptable	Maxixe	-23.85972	02/10/2016, 00:00:00	35.34722	Africa/Maputo
good	Le Robert	14.67751	2023-01-11	-60.94228	America/Martinique
excellent	Ar Ruseris	11.8659	03 Mar 2022	34.3869	Africa/Khartoum
good	Valinhos	-22.97056	2016/09/16	-46.99583	America/Sao_Paulo
excellent	Scottsdale	33.50921	2022/10/10	-111.89903	America/Phoenix
excellent	Albufeira	37.08819	2022-08-12	-8.2503	Europe/Lisbon
good	Poulton-le-Fylde	53.83333	2025/08/01	-2.98333	Europe/London
acceptable	Media Luna	20.14298	02 Oct 2021	-77.43532	America/Havana
good	Memmingen	47.98372	2023-06-27	10.18527	Europe/Berlin
good	Muskogee	35.74788	08/19/2016, 00:00:00	-95.36969	America/Chicago
good	Sar-e Pul	36.21544	03/08/2021, 00:00:00	65.93249	Asia/Kabul
excellent	Arzamas	55.39485	09 Mar 2024	43.83992	Europe/Moscow
acceptable	Cebu City	10.31672	2024/02/13	123.89071	Asia/Manila
excellent	Hlukhiv	51.67822	20 Feb 2025	33.9162	Europe/Kyiv
good	Troutdale	45.53929	2016-10-29	-122.38731	America/Los_Angeles
good	Adliswil	47.30997	11 Jan 2017	8.52462	Europe/Zurich
good	Kamina	-8.73508	07/26/2025, 00:00:00	24.99798	Africa/Lubumbashi
excellent	Ishim	56.11281	16 Mar 2023	69.49015	Asia/Yekaterinburg
maintenance	Paracho de Verduzco	19.64745	07/17/2023, 00:00:00	-102.04897	America/Mexico_City
good	Woodbridge	40.5576	2020/11/17	-74.28459	America/New_York
excellent	Utica	43.1009	2019/11/04	-75.23266	America/New_York
excellent	Port Huron	42.97086	01/20/2017, 00:00:00	-82.42491	America/Detroit
acceptable	La Garenne-Colombes	48.90472	06 Mar 2018	2.2469	Europe/Paris
maintenance	Rutland	43.61062	04 Apr 2018	-72.97261	America/New_York
good	Searcy	35.25064	2020/12/20	-91.73625	America/Chicago
good	Gaziantep	37.05944	2021/09/30	37.3825	Europe/Istanbul
excellent	Blackpool	53.81667	2018/10/14	-3.05	Europe/London
excellent	Amreli	21.59983	2016/11/05	71.21169	Asia/Kolkata
good	Liaoyang	41.27194	2024-02-10	123.17306	Asia/Shanghai
acceptable	Sicklerville	39.71734	2025-06-09	-74.96933	America/New_York
excellent	Foshan	23.02677	2017-07-30	113.13148	Asia/Shanghai
good	Polohy	47.48444	2021-12-08	36.25361	Europe/Zaporozhye
acceptable	Newburgh	41.50343	16 Aug 2023	-74.01042	America/New_York
good	Naushahra Virkan	31.96258	04 Nov 2016	73.97117	Asia/Karachi
good	Teluk Intan	4.02219	10/10/2021, 00:00:00	101.02083	Asia/Kuala_Lumpur
acceptable	Barra dos Coqueiros	-10.90889	2018-11-25	-37.03861	America/Maceio
maintenance	Kendall	25.67927	2022-10-29	-80.31727	America/New_York
good	Voznesensk	47.56494	2019/02/07	31.33078	Europe/Kyiv
good	Oktyabr‚Äôskiy	54.48147	07/26/2021, 00:00:00	53.47103	Asia/Yekaterinburg
good	Chacabuco	-34.64167	06 Feb 2018	-60.47389	America/Argentina/Buenos_Aires
good	Kearns	40.65995	11/25/2017, 00:00:00	-111.99633	America/Denver
maintenance	Sambalpur	21.46527	2024/01/30	83.97573	Asia/Kolkata
excellent	Leioa	43.32686	09 Jan 2025	-2.98884	Europe/Madrid
excellent	Dawei	14.0823	2016/05/11	98.19151	Asia/Yangon
good	Ar Ruseris	11.8659	06/15/2025, 00:00:00	34.3869	Africa/Khartoum
good	Woodbridge	40.5576	2016-06-08	-74.28459	America/New_York
excellent	Espoo	60.2052	05 Feb 2022	24.6522	Europe/Helsinki
excellent	Carlsbad	32.42067	2016/05/04	-104.22884	America/Denver
acceptable	Salvatierra	20.21322	17 Mar 2020	-100.88023	America/Mexico_City
excellent	Voznesensk	47.56494	2017/07/27	31.33078	Europe/Kyiv
good	Odessa	31.84568	2020/08/01	-102.36764	America/Chicago
acceptable	Villabate	38.07789	2017-05-24	13.44275	Europe/Rome
good	Boyeros	23.0072	12/13/2016, 00:00:00	-82.4017	America/Havana
good	Chanika	-5.41667	2023-05-13	38.01667	Africa/Dar_es_Salaam
good	Privolzhskiy	51.40944	2021-07-28	46.04833	Europe/Saratov
good	Jhol	25.95533	02/11/2023, 00:00:00	68.88871	Asia/Karachi
good	Recife	-8.05389	07/21/2022, 00:00:00	-34.88111	America/Recife
good	Shuangcheng	45.35	03/04/2018, 00:00:00	126.28333	Asia/Shanghai
good	Tandil	-37.32167	08/07/2019, 00:00:00	-59.13316	America/Argentina/Buenos_Aires
good	Dahlem	52.4581	2025-06-08	13.28702	Europe/Berlin
excellent	Caravaca	38.10558	2025-02-05	-1.86343	Europe/Madrid
acceptable	Dongdu	35.85	04/30/2018, 00:00:00	117.7	Asia/Shanghai
acceptable	Kutná Hora	49.952431	2017-04-22	15.268654	Europe/Prague
good	Altamira	-3.20333	10 Feb 2021	-52.20639	America/Santarem
maintenance	Dumont	40.94065	04/15/2024, 00:00:00	-73.99681	America/New_York
excellent	Rafiganj	24.81757	18 Apr 2016	84.63445	Asia/Kolkata
acceptable	Lons-le-Saunier	46.67535	2024-08-07	5.55575	Europe/Paris
excellent	Nova Xavantina	-14.66463	04 Mar 2023	-52.35558	America/Cuiaba
good	Lakewood	41.48199	2020-06-21	-81.79819	America/New_York
good	Charlottetown	46.23899	07 Oct 2022	-63.13414	America/Halifax
good	Moga	30.81383	29 Nov 2017	75.16878	Asia/Kolkata
good	Novara	45.44694	20 Jun 2025	8.62118	Europe/Rome
good	Tortona	44.89784	07/01/2023, 00:00:00	8.86374	Europe/Rome
good	Yao	34.61667	05/18/2019, 00:00:00	135.6	Asia/Tokyo
acceptable	Beni Khiar	36.46917	2024/10/24	10.78222	Africa/Tunis
good	Kafanchan	9.58126	2017/11/26	8.2926	Africa/Lagos
good	Brunswick	43.91452	07/01/2019, 00:00:00	-69.96533	America/New_York
acceptable	Houthalen	51.03427	2023/07/08	5.37429	Europe/Brussels
good	Laiwu	36.19278	09/24/2020, 00:00:00	117.65694	Asia/Shanghai
acceptable	Utica	43.1009	2022-09-07	-75.23266	America/New_York
excellent	Radevormwald	51.20219	26 May 2023	7.36027	Europe/Berlin
excellent	Motomachi	43.82634	05/05/2021, 00:00:00	144.09638	Asia/Tokyo
excellent	České Budějovice	48.975658	2025/04/10	14.480255	Europe/Prague
good	Hoxtolgay	46.51872	2018-03-15	86.00214	Asia/Urumqi
good	Pujali	22.4711	05/24/2022, 00:00:00	88.1453	Asia/Kolkata
maintenance	Saraj	42	24 Dec 2020	21.32778	Europe/Skopje
acceptable	Bachhraon	28.92694	2017/10/29	78.23456	Asia/Kolkata
good	Ken Caryl	39.57582	2022/02/24	-105.11221	America/Denver
acceptable	Reda	54.60528	2025/08/08	18.34717	Europe/Warsaw
good	Murray	36.61033	17 Mar 2024	-88.31476	America/Chicago
good	Schleswig	54.52156	24 Mar 2020	9.5586	Europe/Berlin
good	Sarandi	-23.44361	20 Feb 2018	-51.87389	America/Sao_Paulo
excellent	Odessa	31.84568	2020/01/27	-102.36764	America/Chicago
maintenance	La Ligua	-32.45242	07 Aug 2018	-71.23106	America/Santiago
excellent	Rolla	37.95143	2018-11-15	-91.77127	America/Chicago
acceptable	Bad Segeberg	53.94313	06/13/2017, 00:00:00	10.30215	Europe/Berlin
good	Stade	53.59337	02 Dec 2016	9.47629	Europe/Berlin
excellent	Pleasant Prairie	42.55308	2020-04-29	-87.93341	America/Chicago
good	Baza	37.49073	2021-10-12	-2.77259	Europe/Madrid
excellent	Thenia	36.72544	2016/04/18	3.55665	Africa/Algiers
acceptable	Haicheng	40.85158	25 Apr 2024	122.74754	Asia/Shanghai
excellent	Chillum	38.96372	2019-09-14	-76.99081	America/New_York
good	Nowshahr	36.64852	30 Dec 2024	51.49621	Asia/Tehran
good	Bad Segeberg	53.94313	2017/06/19	10.30215	Europe/Berlin
excellent	Lutz	28.15112	2023-04-27	-82.46148	America/New_York
excellent	Altamira	-3.20333	10 Mar 2021	-52.20639	America/Santarem
good	Frenda	35.06544	2023-10-02	1.04945	Africa/Algiers
good	Tornio	65.84811	05 Feb 2024	24.14662	Europe/Helsinki
excellent	Silvan	38.13708	06/02/2017, 00:00:00	41.00817	Europe/Istanbul
good	Beidao	34.56861	27 Oct 2023	105.89333	Asia/Shanghai
good	Waverly	42.7392	2022-01-23	-84.62081	America/Detroit
good	Kasangulu	-4.5833	2023-01-18	15.16554	Africa/Kinshasa
good	Dombivli	19.21667	06/12/2016, 00:00:00	73.08333	Asia/Kolkata
maintenance	Glendale	34.14251	05/05/2017, 00:00:00	-118.25508	America/Los_Angeles
acceptable	Muncar	-8.43333	12/16/2022, 00:00:00	114.33333	Asia/Jakarta
excellent	Olanchito	15.48131	06/05/2021, 00:00:00	-86.57415	America/Tegucigalpa
excellent	Lymington	50.75767	03/23/2025, 00:00:00	-1.5443	Europe/London
good	Villa del Rosario	7.83389	2020/12/24	-72.47417	America/Bogota
excellent	Telč	49.183239	2016/11/10	15.454273	Europe/Prague
good	Kulai	1.6561	05/07/2024, 00:00:00	103.6032	Asia/Kuala_Lumpur
good	Albufeira	37.08819	2023-02-20	-8.2503	Europe/Lisbon
good	Coralville	41.6764	2018-02-12	-91.58045	America/Chicago
excellent	Fayetteville	35.05266	2023/06/11	-78.87836	America/New_York
excellent	Changshu City	31.64615	2024-09-05	120.74221	Asia/Shanghai
good	Tuxtla	16.75973	15 Dec 2022	-93.11308	America/Mexico_City
good	Guanajuato	21.01858	17 Jul 2022	-101.2591	America/Mexico_City
excellent	Penzance	50.11861	03/09/2025, 00:00:00	-5.53715	Europe/London
good	Bryn Mawr-Skyway	47.4943	2021-07-21	-122.24092	America/Los_Angeles
excellent	Minokamo	35.48199	30 Apr 2021	137.02166	Asia/Tokyo
good	Southsea	50.79205	2017/04/07	-1.08593	Europe/London
good	Sector 6	44.43579	31 Jan 2016	26.01649	Europe/Bucharest
acceptable	Stuttgart	48.78232	2016-09-15	9.17702	Europe/Berlin
excellent	Kantharalak	14.64056	2024-08-23	104.64992	Asia/Bangkok
acceptable	Kolomyagi	60.02427	30 Mar 2018	30.28491	Europe/Moscow
good	Privolzhskiy	51.40944	2016-06-30	46.04833	Europe/Saratov
good	Temse	51.12794	2019/09/07	4.21372	Europe/Brussels
good	Sun City Center	27.71809	2024/04/27	-82.35176	America/New_York
good	Isfahan	32.65246	2025-01-08	51.67462	Asia/Tehran
good	Buri	-23.7975	2022-04-23	-48.59278	America/Sao_Paulo
excellent	Ajdabiya	30.75545	2022-02-13	20.22625	Africa/Tripoli
excellent	Kashipur	29.21399	2016/09/28	78.95693	Asia/Kolkata
acceptable	Waverly	42.7392	2024/02/13	-84.62081	America/Detroit
good	Sankt Peter	47.05	03/29/2017, 00:00:00	15.46667	Europe/Vienna
good	Media Luna	20.14298	2022/10/16	-77.43532	America/Havana
good	Neuburg an der Donau	48.73218	05/31/2017, 00:00:00	11.18709	Europe/Berlin
acceptable	Rajaori	33.37526	2022-05-10	74.3092	Asia/Kolkata
good	Evergreen Park	41.72059	2016-09-25	-87.70172	America/Chicago
good	Pune	18.51957	2021/11/27	73.85535	Asia/Kolkata
excellent	Ksar Chellala	35.21222	21 Oct 2020	2.31889	Africa/Algiers
excellent	Ehingen	48.28259	2017/04/18	9.72749	Europe/Berlin
good	Punta Gorda Isles	26.91756	2020-07-14	-82.07842	America/New_York
good	Lal Bahadur Nagar	17.34769	12/07/2022, 00:00:00	78.55757	Asia/Kolkata
good	Kelowna	49.88307	2020-12-02	-119.48568	America/Vancouver
excellent	Paoy Paet	13.65805	08/13/2022, 00:00:00	102.56365	Asia/Phnom_Penh
excellent	Gauting	48.06919	2021-01-27	11.37703	Europe/Berlin
good	Yingkou	40.66482	22 Dec 2017	122.22833	Asia/Shanghai
good	Visitacion Valley	37.71715	2025/07/08	-122.40433	America/Los_Angeles
acceptable	Kashipur	29.21399	02/07/2024, 00:00:00	78.95693	Asia/Kolkata
excellent	Vahdat	38.55632	09 May 2020	69.01354	Asia/Dushanbe
excellent	Nyahururu	0.03813	02/01/2019, 00:00:00	36.36339	Africa/Nairobi
good	Sassari	40.72586	2022-03-09	8.55552	Europe/Rome
excellent	Qadirpur Ran	30.29184	13 Jul 2016	71.67164	Asia/Karachi
good	Larkana	27.55898	11/02/2016, 00:00:00	68.21204	Asia/Karachi
good	Westchester	41.85059	02/14/2021, 00:00:00	-87.882	America/Chicago
acceptable	Dyat‚Äôkovo	53.59782	05/23/2019, 00:00:00	34.33825	Europe/Moscow
good	Brenham	30.16688	2018-09-11	-96.39774	America/Chicago
good	Jackson	35.61452	22 Jul 2022	-88.81395	America/Chicago
excellent	Petrozavodsk	61.78491	2023/12/27	34.34691	Europe/Moscow
acceptable	Pilkhua	28.71271	2017/09/03	77.656	Asia/Kolkata
good	Paoy Paet	13.65805	12/04/2021, 00:00:00	102.56365	Asia/Phnom_Penh
good	Port Richmond	40.63316	2021-03-31	-74.13653	America/New_York
good	Arua	3.02013	17 Apr 2024	30.91105	Africa/Kampala
good	Ajdabiya	30.75545	04/07/2023, 00:00:00	20.22625	Africa/Tripoli
acceptable	New Yekepa	7.57944	2016-10-10	-8.53778	Africa/Monrovia
good	Dalsingh Sarai	25.66795	08 Jan 2022	85.83636	Asia/Kolkata
excellent	Burgos	15.72892	2021/01/06	120.57224	Asia/Manila
excellent	Blackpool	53.81667	22 May 2017	-3.05	Europe/London
good	Gonesse	48.98693	2019-05-27	2.44892	Europe/Paris
excellent	Sakaraha	-22.9	05 Jun 2019	44.53333	Indian/Antananarivo
good	Lodwar	3.11988	2024-01-21	35.59642	Africa/Nairobi
maintenance	Sector 6	44.43579	03/28/2024, 00:00:00	26.01649	Europe/Bucharest
good	Mwandiga	-4.83	12 Dec 2024	29.65806	Africa/Dar_es_Salaam
excellent	Custoias	41.1053	2021/04/10	-7.32097	Europe/Lisbon
good	Maliana	-8.99167	10/26/2016, 00:00:00	125.21972	Asia/Dili
good	Jinotepe	11.84962	08 Nov 2020	-86.19903	America/Managua
good	Artsyz	45.99194	03/29/2020, 00:00:00	29.41824	Europe/Kyiv
acceptable	Aloha	45.49428	05/21/2021, 00:00:00	-122.86705	America/Los_Angeles
good	El Achir	36.06386	2021-03-05	4.62744	Africa/Algiers
excellent	Narva	59.37722	15 Sep 2021	28.19028	Europe/Tallinn
